{
"type": "FeatureCollection",
"crs": { "type": "name", "properties": { "name": "urn:ogc:def:crs:OGC:1.3:CRS84" } },
                                                                                
"features": [
{ "type": "Feature", "properties": { "id": 127, "name": "Ferma", "latitude": 55.739351, "longitude": 37.771749, "categories": [ 6, 11 ] }, "geometry": { "type": "Point", "coordinates": [ 37.771749, 55.739351 ] } },
{ "type": "Feature", "properties": { "id": 23, "name": "Сахара", "latitude": 55.871277, "longitude": 37.443120, "categories": [ 1, 11 ] }, "geometry": { "type": "Point", "coordinates": [ 37.44312, 55.871277 ] } },
{ "type": "Feature", "properties": { "id": 17, "name": "Лоспарк (Лосинка)", "latitude": 55.819769, "longitude": 37.682618, "categories": [ 1 ] }, "geometry": { "type": "Point", "coordinates": [ 37.682618, 55.819769 ] } },
{ "type": "Feature", "properties": { "id": 20, "name": "Орехово. Овраг", "latitude": 55.597556, "longitude": 37.699806, "categories": [ 2 ] }, "geometry": { "type": "Point", "coordinates": [ 37.699806, 55.597556 ] } },
{ "type": "Feature", "properties": { "id": 22, "name": "Орехово. Яма", "latitude": 55.603556, "longitude": 37.698420, "categories": [ 1 ] }, "geometry": { "type": "Point", "coordinates": [ 37.69842, 55.603556 ] } },
{ "type": "Feature", "properties": { "id": 107, "name": "Скейт-Плаза (Скейт-парк \"Красная Пресня\")", "latitude": 55.755302, "longitude": 37.548932, "categories": [ 6, 11 ] }, "geometry": { "type": "Point", "coordinates": [ 37.548932, 55.755302 ] } },
{ "type": "Feature", "properties": { "id": 110, "name": "Рампа в Парке Победы", "latitude": 55.729970, "longitude": 37.502607, "categories": [ 6, 11 ] }, "geometry": { "type": "Point", "coordinates": [ 37.502607, 55.72997 ] } },
{ "type": "Feature", "properties": { "id": 79, "name": "Я-ой или дерты на Фукусиме", "latitude": 55.625500, "longitude": 37.584855, "categories": [ 1 ] }, "geometry": { "type": "Point", "coordinates": [ 37.584855, 55.6255 ] } },
{ "type": "Feature", "properties": { "id": 88, "name": "Садовники", "latitude": 55.666741, "longitude": 37.658682, "categories": [ 1 ] }, "geometry": { "type": "Point", "coordinates": [ 37.658682, 55.666741 ] } },
{ "type": "Feature", "properties": { "id": 89, "name": "Скейт-парк в Кузьминках", "latitude": 55.693968, "longitude": 37.766031, "categories": [ 1 ] }, "geometry": { "type": "Point", "coordinates": [ 37.766031, 55.693968 ] } },
{ "type": "Feature", "properties": { "id": 61, "name": "Чертановский парк", "latitude": 55.638638, "longitude": 37.617356, "categories": [ 6, 11 ] }, "geometry": { "type": "Point", "coordinates": [ 37.617356, 55.638638 ] } },
{ "type": "Feature", "properties": { "id": 62, "name": "Скейт-парк ВДНХ (Останкинский парк)", "latitude": 55.826592, "longitude": 37.609238, "categories": [ 6, 11 ] }, "geometry": { "type": "Point", "coordinates": [ 37.609238, 55.826592 ] } },
{ "type": "Feature", "properties": { "id": 138, "name": "Жулебино", "latitude": 55.696717, "longitude": 37.838660, "categories": [ 1 ] }, "geometry": { "type": "Point", "coordinates": [ 37.83866, 55.696717 ] } },
{ "type": "Feature", "properties": { "id": 60, "name": "Нагатинская пойма", "latitude": 55.695134, "longitude": 37.674508, "categories": [ 1, 10 ] }, "geometry": { "type": "Point", "coordinates": [ 37.674508, 55.695134 ] } },
{ "type": "Feature", "properties": { "id": 87, "name": "Сквот", "latitude": 55.792844, "longitude": 37.675248, "categories": [ 6, 11, 20 ] }, "geometry": { "type": "Point", "coordinates": [ 37.675248, 55.792844 ] } },
{ "type": "Feature", "properties": { "id": 155, "name": "Скейт-парк в Лианозовском парке", "latitude": 55.898760, "longitude": 37.573860, "categories": [ 6, 11 ] }, "geometry": { "type": "Point", "coordinates": [ 37.57386, 55.89876 ] } },
{ "type": "Feature", "properties": { "id": 101, "name": "Измайловский памп-трек", "latitude": 55.781914, "longitude": 37.785023, "categories": [ 3, 14 ] }, "geometry": { "type": "Point", "coordinates": [ 37.785023, 55.781914 ] } },
{ "type": "Feature", "properties": { "id": 104, "name": "Подушка Energy360", "latitude": 55.753603, "longitude": 37.428664, "categories": [ 1, 16 ] }, "geometry": { "type": "Point", "coordinates": [ 37.428664, 55.753603 ] } },
{ "type": "Feature", "properties": { "id": 111, "name": "Скейт парк на Коптевском бульваре", "latitude": 55.832212, "longitude": 37.521644, "categories": [ 6, 11 ] }, "geometry": { "type": "Point", "coordinates": [ 37.521644, 55.832212 ] } },
{ "type": "Feature", "properties": { "id": 109, "name": "Скейт плаза в Измайловском парке", "latitude": 55.760802, "longitude": 37.760225, "categories": [ 6, 11 ] }, "geometry": { "type": "Point", "coordinates": [ 37.760225, 55.760802 ] } },
{ "type": "Feature", "properties": { "id": 114, "name": "Скейт парк на Яузе", "latitude": 55.873421, "longitude": 37.654565, "categories": [ 6, 11 ] }, "geometry": { "type": "Point", "coordinates": [ 37.654565, 55.873421 ] } },
{ "type": "Feature", "properties": { "id": 124, "name": "Бабаевский дерт", "latitude": 55.831851, "longitude": 37.810167, "categories": [ 1 ] }, "geometry": { "type": "Point", "coordinates": [ 37.810167, 55.831851 ] } },
{ "type": "Feature", "properties": { "id": 11, "name": "Фукусима", "latitude": 55.624643, "longitude": 37.582780, "categories": [ 3 ] }, "geometry": { "type": "Point", "coordinates": [ 37.58278, 55.624643 ] } },
{ "type": "Feature", "properties": { "id": 125, "name": "Скейт-парк в парке Горького", "latitude": 55.726894, "longitude": 37.600262, "categories": [ 6, 11 ] }, "geometry": { "type": "Point", "coordinates": [ 37.600262, 55.726894 ] } },
{ "type": "Feature", "properties": { "id": 19, "name": "Покра", "latitude": 55.824453, "longitude": 37.472053, "categories": [ 1, 2 ] }, "geometry": { "type": "Point", "coordinates": [ 37.472053, 55.824453 ] } },
{ "type": "Feature", "properties": { "id": 126, "name": "Puma Social Club", "latitude": 55.726249, "longitude": 37.600315, "categories": [ 1 ] }, "geometry": { "type": "Point", "coordinates": [ 37.600315, 55.726249 ] } },
{ "type": "Feature", "properties": { "id": 123, "name": "BMX школа на Семеновской", "latitude": 55.788072, "longitude": 37.730430, "categories": [ 6, 11, 20 ] }, "geometry": { "type": "Point", "coordinates": [ 37.73043, 55.788072 ] } },
{ "type": "Feature", "properties": { "id": 96, "name": "The upper Dirt", "latitude": 55.761712, "longitude": 37.422400, "categories": [ 1 ] }, "geometry": { "type": "Point", "coordinates": [ 37.4224, 55.761712 ] } },
{ "type": "Feature", "properties": { "id": 14, "name": "Филпарк", "latitude": 55.740798, "longitude": 37.445267, "categories": [ 2 ] }, "geometry": { "type": "Point", "coordinates": [ 37.445267, 55.740798 ] } },
{ "type": "Feature", "properties": { "id": 29, "name": "Тушинский памп-трек", "latitude": 55.855312, "longitude": 37.451671, "categories": [ 3 ] }, "geometry": { "type": "Point", "coordinates": [ 37.451671, 55.855312 ] } },
{ "type": "Feature", "properties": { "id": 148, "name": "Спуск на Смоленской", "latitude": 55.745484, "longitude": 37.579830, "categories": [ 6 ] }, "geometry": { "type": "Point", "coordinates": [ 37.57983, 55.745484 ] } },
{ "type": "Feature", "properties": { "id": 383, "name": "Братцево MTB Spot", "latitude": 55.850253, "longitude": 37.401422, "categories": [ 2 ] }, "geometry": { "type": "Point", "coordinates": [ 37.401422, 55.850253 ] } },
{ "type": "Feature", "properties": { "id": 440, "name": "Дёрты в Серебряном бору", "latitude": 55.778213, "longitude": 37.437532, "categories": [ 1 ] }, "geometry": { "type": "Point", "coordinates": [ 37.437532, 55.778213 ] } },
{ "type": "Feature", "properties": { "id": 287, "name": "Мини Скейтпарк", "latitude": 55.821012, "longitude": 37.502815, "categories": [ 6, 11 ] }, "geometry": { "type": "Point", "coordinates": [ 37.502815, 55.821012 ] } },
{ "type": "Feature", "properties": { "id": 7, "name": "Подкова", "latitude": 55.846341, "longitude": 37.720828, "categories": [ 2 ] }, "geometry": { "type": "Point", "coordinates": [ 37.720828, 55.846341 ] } },
{ "type": "Feature", "properties": { "id": 194, "name": "Памп-трек Измайлово", "latitude": 55.783650, "longitude": 37.760961, "categories": [ 3 ] }, "geometry": { "type": "Point", "coordinates": [ 37.760961, 55.78365 ] } },
{ "type": "Feature", "properties": { "id": 271, "name": "Timir Trails", "latitude": 55.820908, "longitude": 37.536496, "categories": [ 1 ] }, "geometry": { "type": "Point", "coordinates": [ 37.536496, 55.820908 ] } },
{ "type": "Feature", "properties": { "id": 385, "name": "Жигули", "latitude": 55.632969, "longitude": 37.546301, "categories": [ 2 ] }, "geometry": { "type": "Point", "coordinates": [ 37.546301, 55.632969 ] } },
{ "type": "Feature", "properties": { "id": 214, "name": "Памп\\дёрт в сокольниках", "latitude": 55.801571, "longitude": 37.661882, "categories": [ 1, 3 ] }, "geometry": { "type": "Point", "coordinates": [ 37.661882, 55.801571 ] } },
{ "type": "Feature", "properties": { "id": 10, "name": "Олешки", "latitude": 55.783604, "longitude": 37.765347, "categories": [ 1, 2 ] }, "geometry": { "type": "Point", "coordinates": [ 37.765347, 55.783604 ] } },
{ "type": "Feature", "properties": { "id": 327, "name": "Скейтпарк в Лужниках", "latitude": 55.723222, "longitude": 37.546713, "categories": [ 6, 11 ] }, "geometry": { "type": "Point", "coordinates": [ 37.546713, 55.723222 ] } },
{ "type": "Feature", "properties": { "id": 422, "name": "Маленький скейт парк", "latitude": 55.607840, "longitude": 37.722216, "categories": [ 6, 11 ] }, "geometry": { "type": "Point", "coordinates": [ 37.722216, 55.60784 ] } },
{ "type": "Feature", "properties": { "id": 4, "name": "Строгинский памп-трек", "latitude": 55.805216, "longitude": 37.443723, "categories": [ 1, 3 ] }, "geometry": { "type": "Point", "coordinates": [ 37.443723, 55.805216 ] } },
{ "type": "Feature", "properties": { "id": 5, "name": "Орехово", "latitude": 55.602008, "longitude": 37.704638, "categories": [ 1, 2, 10 ] }, "geometry": { "type": "Point", "coordinates": [ 37.704638, 55.602008 ] } },
{ "type": "Feature", "properties": { "id": 466, "name": "Велосквер \"Нагорный\"", "latitude": 55.688781, "longitude": 37.621784, "categories": [ 6, 7 ] }, "geometry": { "type": "Point", "coordinates": [ 37.621784, 55.688781 ] } },
{ "type": "Feature", "properties": { "id": 63, "name": "Кант", "latitude": 55.678032, "longitude": 37.614410, "categories": [ 2, 4 ] }, "geometry": { "type": "Point", "coordinates": [ 37.61441, 55.678032 ] } },
{ "type": "Feature", "properties": { "id": 1, "name": "Смотра", "latitude": 55.714306, "longitude": 37.539250, "categories": [ 2 ] }, "geometry": { "type": "Point", "coordinates": [ 37.53925, 55.714306 ] } },
{ "type": "Feature", "properties": { "id": 130, "name": "Скейт-парк МТС в ВДНХ", "latitude": 55.830967, "longitude": 37.625846, "categories": [ 6, 11 ] }, "geometry": { "type": "Point", "coordinates": [ 37.625846, 55.830967 ] } },
{ "type": "Feature", "properties": { "id": 502, "name": "PS Street spot", "latitude": 55.750100, "longitude": 37.653700, "categories": [ 6 ] }, "geometry": { "type": "Point", "coordinates": [ 37.6537, 55.7501 ] } }
]
}
